City_ID,City,Lat,Lng,Max Temp,Humidity,Cloudiness,Wind Speed,Country,Date
0,howard springs,-12.497,131.047,306.1,36,80,4.32,AU,1723090508
1,yellowknife,62.456,-114.3525,289.41,48,1,3.92,CA,1723090402
2,east london,-33.0153,27.9116,283.67,66,0,3.6,ZA,1723090510
3,blackmans bay,-43.0167,147.3167,286.89,61,100,1.79,AU,1723090511
4,hermanus,-34.4187,19.2345,284.44,86,0,3.14,ZA,1723090512
5,santa ana,33.7456,-117.8678,297.21,83,20,3.09,US,1723090513
6,bethel,41.3712,-73.414,291.49,90,100,0.45,US,1723090510
7,afaahiti,-17.75,-149.2833,299.08,81,5,7.4,PF,1723090515
8,kapuskasing,49.4169,-82.4331,290.2,72,100,2.57,CA,1723090516
9,kralendijk,12.15,-68.2667,302.14,79,3,5.14,BQ,1723090517
10,howrah,22.5892,88.3103,303.15,84,75,4.12,IN,1723090519
11,edinburgh of the seven seas,-37.0676,-12.3116,282.42,54,100,10.62,SH,1723090520
12,ribeira grande,38.5167,-28.7,294.69,84,0,2.68,PT,1723090521
13,karratha,-20.7377,116.8463,300.43,24,12,3.09,AU,1723090522
14,grytviken,-54.2811,-36.5092,263.08,75,19,4.4,GS,1723090523
15,fort valley,32.5538,-83.8874,300.75,88,0,1.54,US,1723090524
16,waitangi,-43.9535,-176.5597,284.16,77,26,1.34,NZ,1723090525
17,manicore,-5.8092,-61.3003,297.43,49,5,1.11,BR,1723090526
18,puerto ayora,-0.7393,-90.3518,292.34,98,85,2.24,EC,1723090527
19,adamstown,-25.066,-130.1015,292.74,67,95,3.24,PN,1723090528
20,iqaluit,63.7506,-68.5145,279.0,81,20,1.03,CA,1723090530
21,belyy yar,53.6039,91.3903,294.09,78,40,3.0,RU,1723090532
22,olonkinbyen,70.9221,-8.7187,278.46,100,100,3.23,SJ,1723090533
23,isafjordur,66.0755,-23.124,279.76,87,97,1.13,IS,1723090534
24,reuleuet,5.2167,96.2833,303.97,64,36,3.34,ID,1723090535
25,bomdila,27.25,92.4,288.34,86,99,2.58,IN,1723090536
26,margaret river,-33.95,115.0667,288.87,64,100,5.87,AU,1723090537
27,rajin,42.2489,130.3003,300.99,71,100,2.27,KP,1723090538
28,tiksi,71.6872,128.8694,278.96,96,100,0.45,RU,1723090539
29,richfield,44.8833,-93.283,293.86,83,100,1.34,US,1723090540
30,beloyarskiy,63.7119,66.6722,287.35,55,19,1.55,RU,1723090541
31,albany,42.6001,-73.9662,290.73,77,1,1.4,US,1723090526
32,la ronge,55.1001,-105.2842,284.27,76,75,0.0,CA,1723090544
33,port-aux-francais,-49.35,70.2167,273.56,94,100,11.61,TF,1723090545
34,novyy urengoy,66.0833,76.6333,285.68,61,90,6.03,RU,1723090546
35,nyurba,63.2842,118.3319,295.56,38,10,2.11,RU,1723090547
36,martuk,50.7475,56.5056,295.36,66,6,2.91,KZ,1723090548
37,newman,37.3138,-121.0208,305.53,40,0,1.34,US,1723090320
38,anadyr,64.75,177.4833,281.43,81,40,5.0,RU,1723090497
39,punta arenas,-53.15,-70.9167,275.21,80,100,5.14,CL,1723090281
40,tarauaca,-8.1614,-70.7656,299.26,68,96,0.62,BR,1723090552
41,ust-nera,64.5667,143.2,287.45,75,99,1.11,RU,1723090553
42,buarcos,40.166,-8.8768,290.9,93,15,4.26,PT,1723090554
43,queenstown,-31.8976,26.8753,282.23,34,0,2.31,ZA,1723090555
44,peace river,56.2501,-117.286,290.32,88,0,1.03,CA,1723090556
45,columbia,34.0007,-81.0348,299.95,80,100,6.69,US,1723090479
46,ushuaia,-54.8,-68.3,273.96,86,100,1.03,AR,1723090559
47,lorengau,-2.0226,147.2712,302.92,69,23,4.44,PG,1723090560
48,bilibino,68.0546,166.4372,287.91,37,29,5.41,RU,1723090561
49,alo,6.5486,4.2686,296.94,86,99,3.65,NG,1723090562
50,sakaiminato,35.55,133.2333,306.11,66,20,5.14,JP,1723090563
51,kone,-21.0595,164.8658,295.5,60,95,3.22,NC,1723090564
52,asubulaq,49.5583,83.0558,299.32,41,93,2.67,KZ,1723090565
53,kavaratti,10.5669,72.642,300.23,83,100,5.69,IN,1723090566
54,igarka,67.4667,86.5833,289.02,54,1,3.71,RU,1723090568
55,kodiak,57.79,-152.4072,286.88,88,40,0.0,US,1723090570
56,georgetown,5.4112,100.3354,305.12,55,20,5.66,MY,1723090571
57,atafu village,-8.5421,-172.5159,301.46,70,16,8.95,TK,1723090572
58,anloga,5.7947,0.8973,296.92,86,99,7.3,GH,1723090573
59,iskateley,67.6803,53.1512,284.37,62,0,2.2,RU,1723090574
60,champerico,14.3,-91.9167,301.71,79,100,1.82,GT,1723090575
61,lihue,21.9789,-159.3672,299.92,72,40,6.17,US,1723090307
62,weiser,44.251,-116.9693,300.8,25,100,3.26,US,1723090577
63,deori khas,23.4,79.0167,296.87,95,100,4.13,IN,1723090578
64,uturoa,-16.7333,-151.4333,299.03,84,39,4.57,PF,1723090579
65,happy valley-goose bay,53.3168,-60.3315,285.32,94,75,3.6,CA,1723090510
66,papatowai,-46.5619,169.4708,281.86,72,49,3.68,NZ,1723090581
67,enewetak,11.3474,162.3373,302.04,75,82,4.73,MH,1723090583
68,torrington,41.8007,-73.1212,290.51,97,58,0.57,US,1723090584
69,saraykent,39.6936,35.5111,288.28,91,6,3.11,TR,1723090585
70,lebu,-37.6167,-73.65,278.54,89,6,1.97,CL,1723090305
71,lazaro cardenas,17.9583,-102.2,301.01,81,100,2.84,MX,1723090588
72,dudinka,69.4058,86.1778,287.98,47,10,9.45,RU,1723090589
73,nemuro,43.3236,145.575,290.33,100,100,3.09,JP,1723090591
74,rmi capitol,7.0893,171.3805,300.94,73,100,2.75,MH,1723090592
75,faya-largeau,17.9257,19.1043,304.75,50,100,4.72,TD,1723090593
76,avarua,-21.2078,-159.775,296.18,56,20,3.6,CK,1723090516
77,kerikeri,-35.2268,173.9474,287.54,88,88,3.17,NZ,1723090596
78,alice springs,-23.7,133.8833,298.9,25,0,5.66,AU,1723090597
79,tazovsky,67.4667,78.7,283.81,65,56,5.48,RU,1723090313
80,adis zemen,12.1167,37.7833,288.36,94,100,0.75,ET,1723090599
81,badger,64.8,-147.5333,296.29,67,75,2.57,US,1723090580
82,nogliki,51.8333,143.1667,286.1,99,100,6.63,RU,1723090601
83,utrik,11.2278,169.8474,301.25,78,18,5.78,MH,1723090602
84,kapa'a,22.0752,-159.319,300.33,80,40,6.17,US,1723090603
85,thompson,55.7435,-97.8558,284.24,82,75,2.57,CA,1723090604
86,ploneour-lanvern,47.9,-4.2833,290.31,100,0,1.54,FR,1723090605
87,brookings,44.3114,-96.7984,291.51,94,100,4.63,US,1723090606
88,mitsamiouli,-11.3847,43.2844,297.6,70,28,3.02,KM,1723090607
89,kilindoni,-7.9139,39.6668,298.06,71,90,5.61,TZ,1723090415
90,port saint john's,-31.6229,29.5448,291.05,28,0,3.22,ZA,1723090610
91,borogontsy,62.6683,131.1683,295.49,40,10,0.98,RU,1723090611
92,ribeira brava,32.65,-17.0667,296.5,71,22,0.93,PT,1723090612
93,kingston,17.997,-76.7936,302.68,74,20,4.12,JM,1723090613
94,college,64.8569,-147.8028,296.33,62,75,2.57,US,1723090614
95,playa del ingles,27.7567,-15.5787,296.01,80,1,2.93,ES,1723090615
96,suva,-18.1416,178.4415,297.86,61,20,5.14,FJ,1723090616
97,sao jose da coroa grande,-8.8978,-35.1478,297.18,77,70,4.36,BR,1723090617
98,petropavlovsk-kamchatsky,53.0452,158.6483,299.48,41,75,7.0,RU,1723090618
99,wailua homesteads,22.0669,-159.378,299.59,82,40,6.17,US,1723090619
100,terrace,54.5163,-128.6035,299.1,44,20,2.57,CA,1723090620
101,merizo village,13.2658,144.6691,301.69,88,97,2.25,GU,1723090622
102,lisala,2.15,21.5167,294.94,93,86,0.92,CD,1723090623
103,stephenville,32.2207,-98.2023,302.22,50,0,2.57,US,1723090624
104,puerto natales,-51.7236,-72.4875,273.73,81,100,1.64,CL,1723090569
105,port mathurin,-19.6833,63.4167,295.47,75,16,5.77,MU,1723090626
106,ilulissat,69.2167,-51.1,278.16,93,100,1.54,GL,1723090627
107,bredasdorp,-34.5322,20.0403,281.25,95,0,2.46,ZA,1723090628
108,uruzgan,32.8333,66.0,303.61,12,0,0.49,AF,1723090629
109,lemvig,56.5486,8.3102,286.59,84,100,4.09,DK,1723090630
110,tura,25.5198,90.2201,301.75,77,61,3.04,IN,1723090631
111,flying fish cove,-10.4217,105.6791,299.97,83,100,7.72,CX,1723090516
112,hawaiian paradise park,19.5933,-154.9731,299.88,76,0,4.12,US,1723090634
113,luderitz,-26.6481,15.1594,283.02,82,0,2.84,NA,1723090635
114,tokar,18.4254,37.729,301.44,62,35,9.07,SD,1723090636
115,wisconsin rapids,44.3836,-89.8174,293.31,91,100,2.06,US,1723090503
116,kot sultan,30.7737,70.9313,310.44,43,0,4.79,PK,1723090638
117,leua,48.2156,18.6071,292.87,61,78,0.67,SK,1723090639
118,laguna,38.421,-121.4238,303.69,36,0,3.09,US,1723090418
119,santyoku,37.4406,129.1708,301.56,76,100,2.8,KR,1723090642
120,mando,10.7167,6.5667,295.0,98,100,2.58,NG,1723090643
121,labytnangi,66.6572,66.4183,286.15,60,11,0.34,RU,1723090644
122,vallenar,-28.5708,-70.7581,283.48,69,0,1.26,CL,1723090413
123,egilsstadir,65.2653,-14.3948,280.1,93,100,2.06,IS,1723090647
124,gjirokaster,40.0758,20.1389,296.25,49,0,1.95,AL,1723090648
125,west island,-12.1568,96.8225,301.14,69,15,5.14,CC,1723090649
126,port elizabeth,-33.918,25.5701,287.21,96,0,3.09,ZA,1723090650
127,ghormach,35.7306,63.7826,305.46,13,0,2.34,AF,1723090651
128,northam,51.0333,-4.2167,290.18,93,45,5.48,GB,1723090652
129,qaqortoq,60.7167,-46.0333,280.23,91,100,2.04,GL,1723090653
130,whangarei,-35.7317,174.3239,284.95,98,100,2.05,NZ,1723090654
131,nuuk,64.1835,-51.7216,277.49,100,100,2.57,GL,1723090655
132,puerto baquerizo moreno,-0.9,-89.6,292.92,78,88,5.96,EC,1723090631
133,flin flon,54.7682,-101.865,287.82,48,100,3.99,CA,1723090657
134,smidovich,48.6,133.8167,299.38,74,97,2.94,RU,1723090659
135,yakeshi,49.2833,120.7333,296.52,44,100,3.91,CN,1723090660
136,hobyo,5.3505,48.5268,297.66,81,80,8.76,SO,1723090661
137,nafada,11.0956,11.3327,296.28,89,100,2.36,NG,1723090662
138,selibaby,15.159,-12.1829,300.39,78,74,6.32,MR,1723090663
139,klyuchi,52.2667,79.1667,296.84,63,99,2.83,RU,1723090664
140,amungan,15.3652,119.9582,302.44,75,83,3.32,PH,1723090665
141,gamboma,-1.8764,15.8644,297.19,54,82,2.53,CG,1723090666
142,lompoc,34.6391,-120.4579,293.23,82,0,2.06,US,1723090667
143,hamilton,39.1834,-84.5333,296.4,84,0,3.6,US,1723090668
144,aasiaat,68.7098,-52.8699,276.55,95,99,3.29,GL,1723090672
145,cabedelo,-6.9811,-34.8339,294.52,73,82,5.05,BR,1723090519
146,saint-pol-de-leon,48.6833,-3.9833,289.7,82,100,1.79,FR,1723090674
147,sitka,57.0531,-135.33,290.09,77,20,1.54,US,1723090675
148,danilovka,50.3557,44.1168,295.46,54,71,1.87,RU,1723090676
149,arkhangel'sk,64.5401,40.5433,287.21,82,0,3.0,RU,1723090677
150,yesilyurt,38.2972,38.2497,294.12,42,0,0.54,TR,1723090678
151,mangaldai,26.4333,92.0333,302.63,78,93,0.76,IN,1723090679
152,troitsko-pechorsk,62.7084,56.1964,287.37,58,4,1.73,RU,1723090680
153,rongelap,11.1635,166.8941,301.58,75,97,3.78,MH,1723090681
154,darnah,32.767,22.6367,299.2,80,0,5.42,LY,1723090683
155,sola,-13.8833,167.55,298.21,73,81,11.11,VU,1723090684
156,akureyri,65.6835,-18.0878,281.11,93,100,1.54,IS,1723090685
157,talnakh,69.4865,88.3972,290.06,49,4,3.39,RU,1723090686
158,swakopmund,-22.6833,14.5333,284.81,88,4,2.42,NA,1723090687
159,maryborough,-25.5333,152.7,294.79,51,54,4.48,AU,1723090688
160,limon,10.0,-83.0333,298.18,89,100,4.18,CR,1723090689
161,rio grande,-32.035,-52.0986,285.9,91,71,3.4,BR,1723090690
162,illizi,26.4833,8.4667,301.04,19,7,2.09,DZ,1723090691
163,bezhetsk,57.7851,36.6965,286.97,94,26,3.09,RU,1723090692
164,yemva,62.59,50.8594,288.02,53,0,2.97,RU,1723090693
165,mahriz,31.5917,54.4318,304.43,9,3,0.8,IR,1723090695
166,longyearbyen,78.2186,15.6401,286.06,82,75,0.0,SJ,1723090696
167,saldanha,-33.0117,17.9442,285.18,87,100,5.63,ZA,1723090697
168,daru,-9.0763,143.2092,299.15,80,97,6.39,PG,1723090698
169,tanabe,33.7333,135.3667,305.71,55,20,4.63,JP,1723090699
170,ruhpolding,47.7667,12.65,290.63,92,62,2.31,DE,1723090700
171,karagay,58.2667,54.9368,287.92,81,91,4.02,RU,1723090701
172,keflavik,64.0049,-22.5624,280.39,100,0,1.03,IS,1723090702
173,guilford,36.0668,-79.7998,297.56,92,100,6.17,US,1723090703
174,alamos,27.0167,-108.9333,298.92,75,100,1.37,MX,1723090704
175,praia,14.9215,-23.5087,298.45,83,75,5.14,CV,1723090705
176,nakhon thai,17.1006,100.8374,303.19,68,90,2.99,TH,1723090707
177,svobodnyy,51.4,128.1333,298.93,50,26,1.02,RU,1723090708
178,nazarovo,56.0064,90.3914,294.19,73,40,2.99,RU,1723090709
179,vilyuchinsk,52.9306,158.4028,301.3,78,27,5.28,RU,1723090303
180,nova sintra,14.8667,-24.7167,298.14,84,46,8.5,CV,1723090711
181,santa cruz,-17.8,-63.1667,293.85,88,75,6.69,BO,1723090681
182,vadso,70.0744,29.7487,289.24,67,0,0.0,NO,1723090713
183,stillwater,36.1156,-97.0584,303.3,57,0,4.12,US,1723090714
184,mantua,45.1667,10.7833,293.73,96,2,2.24,IT,1723090715
185,keren,15.7778,38.4581,292.78,84,31,1.11,ER,1723090716
186,saipan,15.1355,145.701,305.54,70,40,3.09,MP,1723090717
187,narrabri,-30.3167,149.7833,294.55,54,22,0.45,AU,1723090718
188,putnok,48.3,20.4333,293.01,55,17,0.35,HU,1723090720
189,nikolayevsk-on-amure,53.1406,140.73,288.79,95,100,1.58,RU,1723090721
190,la'ie,21.6477,-157.9253,302.13,75,3,2.24,US,1723090054
191,preston,53.7667,-2.7167,288.25,92,100,4.91,GB,1723090723
192,bikenibeu village,1.3673,173.1241,304.13,66,75,1.03,KI,1723090724
193,catriel,-37.8791,-67.7956,276.94,62,85,2.36,AR,1723090725
194,taro,-8.3862,115.28,298.15,65,94,1.66,ID,1723090726
195,vikhorevka,56.1201,101.1636,292.92,71,100,4.42,RU,1723090727
196,beroroha,-21.6667,45.1667,290.44,79,0,1.27,MG,1723090728
197,colonia,50.9333,6.95,290.53,84,0,1.03,DE,1723090729
198,touros,-5.1989,-35.4608,295.94,87,9,4.74,BR,1723090730
199,margate,51.3813,1.3862,288.09,85,33,4.67,GB,1723090732
200,zaozersk,69.4005,32.4476,288.5,57,84,2.76,RU,1723090733
201,ponta delgada,37.7333,-25.6667,295.55,88,40,1.03,PT,1723090581
202,port alfred,-33.5906,26.891,287.82,75,0,4.16,ZA,1723089933
203,vila franca do campo,37.7167,-25.4333,295.38,88,39,2.79,PT,1723090738
204,barrouallie,13.2333,-61.2667,298.59,79,19,3.26,VC,1723090739
205,sur,22.5667,59.5289,303.48,66,40,1.41,OM,1723090740
206,mkokotoni,-5.8767,39.2547,296.01,85,51,3.57,TZ,1723090742
207,freetown,8.484,-13.2299,297.91,85,99,4.05,SL,1723090743
208,bel ombre,-4.6167,55.4167,299.06,89,40,4.63,SC,1723090744
209,san felipe jalapa de diaz,18.0667,-96.5333,298.57,93,73,1.18,MX,1723090745
210,gumdag,39.2061,54.5906,301.13,67,60,5.36,TM,1723090746
211,hasaki,35.7333,140.8333,305.53,73,28,4.47,JP,1723090052
212,estevan,49.1334,-102.9842,282.34,87,0,3.6,CA,1723090748
213,geraldton,-28.7667,114.6,293.38,68,100,3.09,AU,1723090699
214,fort bragg,35.139,-79.006,298.06,95,100,10.29,US,1723090742
215,beyneu,45.3167,55.2,303.7,32,82,7.34,KZ,1723090751
216,broken hill,-31.95,141.4333,289.28,42,100,8.34,AU,1723090382
217,pisco,-13.7,-76.2167,289.18,82,100,2.06,PE,1723090247
218,tamanrasset,22.785,5.5228,299.1,14,0,1.03,DZ,1723090245
219,jamestown,42.097,-79.2353,292.33,94,100,2.57,US,1723090756
220,kailua-kona,19.6406,-155.9956,301.13,86,75,3.6,US,1723090510
221,sofo-birnin-gwari,11.0154,6.7804,293.97,98,100,3.0,NG,1723090758
222,balcarce,-37.8462,-58.2552,280.04,99,100,2.24,AR,1723090759
223,dunedin,-45.8742,170.5036,281.93,82,100,2.68,NZ,1723090736
224,arteche,12.2645,125.4048,305.82,59,61,2.64,PH,1723090306
225,nar'yan-mar,67.6713,53.087,284.39,62,0,2.21,RU,1723090762
226,berdigestyakh,62.0989,126.6992,294.78,39,6,1.11,RU,1723090763
227,pagar alam,-4.0167,103.2667,301.06,54,83,2.24,ID,1723090764
228,fale old settlement,-9.3852,-171.2468,300.99,74,90,8.94,TK,1723090766
229,inhambane,-23.865,35.3833,293.31,85,33,1.59,MZ,1723090735
230,kenai,60.5544,-151.2583,287.2,96,100,3.6,US,1723090768
231,yaren,-0.5472,166.916,301.85,71,56,3.41,NR,1723090769
232,chaparral,3.7232,-75.4832,293.3,86,85,2.31,CO,1723090770
233,san antonio de pale,-1.4014,5.6325,295.79,82,100,5.21,GQ,1723090337
234,cockburn town,21.4612,-71.1419,300.97,87,100,8.18,TC,1723090772
235,bonanza,14.0289,-84.591,295.11,100,100,1.28,NI,1723090773
236,shingu,33.7333,135.9833,304.02,67,2,3.17,JP,1723090774
237,vicosa,-20.7539,-42.8819,289.44,75,0,4.02,BR,1723090775
238,hami,42.8,93.45,291.97,80,100,2.28,CN,1723090776
239,usogorsk,63.4106,48.6872,288.13,51,8,2.51,RU,1723090754
240,dubna,56.7333,37.1667,288.15,89,14,1.92,RU,1723090779
241,lamar,33.6668,-95.5836,303.14,66,0,1.54,US,1723090780
242,veraval,20.9,70.3667,301.35,79,91,7.41,IN,1723090781
243,glendive,47.1053,-104.7125,286.94,88,0,4.63,US,1723090584
244,kulachi,31.9286,70.4592,309.8,42,0,2.73,PK,1723090783
245,mount isa,-20.7333,139.5,300.02,22,0,3.09,AU,1723090784
246,ulladulla,-35.35,150.4667,293.02,49,5,6.63,AU,1723090785
247,wagar,16.1525,36.2032,299.55,72,34,3.21,SD,1723090191
248,makushino,55.2103,67.2442,289.07,68,66,5.09,RU,1723090788
249,vorgashor,67.5833,63.95,285.51,55,19,1.52,RU,1723090375
250,porsa,26.67,78.3747,298.68,98,100,3.57,IN,1723090791
251,taulaga,-11.0553,-171.0883,300.66,75,70,9.45,AS,1723090792
252,tumaco,1.7986,-78.8156,298.01,83,95,2.6,CO,1723090793
253,codrington,-38.2667,141.9667,286.11,70,100,8.55,AU,1723090711
254,binefar,41.8488,0.2968,297.58,54,33,1.26,ES,1723090795
255,torbat-e jam,35.244,60.6225,304.97,11,0,6.98,IR,1723090796
256,praia da vitoria,38.7333,-27.0667,295.29,83,40,2.34,PT,1723089982
257,sandnessjoen,66.0217,12.6316,291.44,79,96,9.3,NO,1723090798
258,puerto ayacucho,5.6639,-67.6236,297.12,93,98,1.68,VE,1723090799
259,lucapa,-8.4192,20.7447,290.73,24,99,2.15,AO,1723090338
260,road town,18.4167,-64.6167,300.2,75,11,6.89,VG,1723090801
261,isangel,-19.55,169.2667,299.21,53,75,3.09,VU,1723090803
262,newtown,-33.8984,151.1775,294.1,59,20,6.17,AU,1723090804
263,pearsall,28.8922,-99.095,305.58,49,21,7.8,US,1723090805
264,undurkhaan,47.3194,110.6556,296.42,62,100,3.37,MN,1723090806
265,kentville,45.0835,-64.4988,289.49,82,0,0.51,CA,1723090807
266,mount gambier,-37.8333,140.7667,286.02,66,100,5.31,AU,1723090808
267,vega de alatorre,20.0333,-96.6333,300.26,82,96,3.78,MX,1723090809
268,antofagasta,-23.65,-70.4,286.75,68,6,3.76,CL,1723090609
269,phu kradueng,16.8843,101.8847,303.54,74,73,1.04,TH,1723090811
270,invercargill,-46.4,168.35,283.72,72,67,2.68,NZ,1723090705
271,weno,7.4515,151.8468,305.12,66,75,2.06,FM,1723090813
272,zeya,53.75,127.2667,296.19,63,88,3.58,RU,1723090815
273,rampur,28.8167,79.0333,301.43,70,15,6.04,IN,1723090816
274,trujillo,-8.116,-79.03,289.13,94,100,4.12,PE,1723090817
275,xai-xai,-25.0519,33.6442,289.24,96,8,3.47,MZ,1723090818
276,port blair,11.6667,92.75,304.17,70,75,4.63,IN,1723090819
277,gadzhiyevo,69.2551,33.3362,287.63,61,72,3.51,RU,1723090820
278,evanston,42.0411,-87.6901,293.74,84,20,2.57,US,1723090821
279,huaraz,-9.5333,-77.5333,283.55,58,71,0.92,PE,1723090822
280,taltal,-25.4,-70.4833,287.38,61,0,1.97,CL,1723090373
281,kasaragod,12.5,75.0,297.78,90,100,1.27,IN,1723090824
282,ponorogo,-7.8685,111.462,303.43,56,35,5.03,ID,1723090826
283,correntina,-13.3433,-44.6367,291.9,62,6,1.58,BR,1723090827
284,manturovo,58.3353,44.7619,288.46,88,71,2.43,RU,1723090828
285,kursavka,44.4564,42.5093,293.01,64,0,2.8,RU,1723090829
286,salekhard,66.53,66.6019,286.13,59,12,1.77,RU,1723090830
287,coquimbo,-29.9533,-71.3436,285.0,73,100,0.51,CL,1723090831
288,brush,40.2589,-103.6238,294.53,88,0,7.2,US,1723090810
289,benemerito de las americas,16.5167,-90.6439,295.92,98,73,1.07,MX,1723090833
290,tralee,52.2704,-9.7026,287.87,96,97,1.8,IE,1723090756
291,languyan,5.2618,120.0807,303.35,62,100,2.64,PH,1723090835
292,ammi moussa,35.8678,1.1114,299.99,60,30,1.58,DZ,1723090836
293,severo-yeniseyskiy,60.3725,93.0408,289.96,76,99,1.71,RU,1723090838
294,verdal,63.7933,11.4817,292.17,90,79,3.3,NO,1723090839
295,lerwick,60.1545,-1.1494,285.15,89,95,12.71,GB,1723090840
296,constantia,44.1833,28.65,291.53,72,4,1.29,RO,1723090841
297,kashgar,39.4547,75.9797,299.71,47,1,4.0,CN,1723090842
298,adrar,20.5022,-10.0711,304.94,33,1,7.25,MR,1723090379
299,port lincoln,-34.7333,135.8667,289.35,69,85,5.94,AU,1723090844
300,mount pearl,47.5166,-52.7813,289.24,90,0,5.66,CA,1723090712
301,sisimiut,66.9395,-53.6735,278.42,90,27,5.72,GL,1723090846
302,callao,-12.0667,-77.15,289.66,77,100,3.09,PE,1723090386
303,zhezqazghan,47.7833,67.7667,305.47,27,0,2.0,KZ,1723090848
304,lepsy,46.235,78.9456,305.51,19,0,3.17,KZ,1723090850
305,kurashiki,34.5833,133.7667,308.73,54,0,2.75,JP,1723090851
306,balezino,57.9796,53.0106,287.46,88,100,3.95,RU,1723090852
307,kavieng,-2.5744,150.7967,302.17,72,14,4.89,PG,1723090853
308,saint-francois,46.4154,3.9054,287.97,99,98,1.51,FR,1723090369
309,karkira,36.9292,6.5856,299.42,38,0,2.11,DZ,1723090855
310,kiunga,-6.1219,141.2906,302.53,67,90,2.41,PG,1723090856
311,kolonia,50.9333,6.95,290.53,84,0,1.03,DE,1723090804
312,xinyuan,37.3,99.0,278.43,95,100,2.15,CN,1723090858
313,guerrero negro,27.9769,-114.0611,295.86,76,0,5.61,MX,1723090709
314,naze,28.3667,129.4833,304.66,67,64,1.15,JP,1723090860
315,sucua,-2.4667,-78.1667,294.01,94,95,1.05,EC,1723090658
316,altay,47.8667,88.1167,299.06,28,1,3.53,CN,1723090863
317,lospalos,-8.5186,127.0025,299.28,63,95,6.5,TL,1723090864
318,kenora,49.8167,-94.4337,287.69,72,40,3.6,CA,1723090865
319,katsuura,35.1333,140.3,300.8,83,25,3.99,JP,1723090866
320,pyu,18.4833,96.4333,301.34,82,89,3.35,MM,1723090867
321,castillos,-34.1667,-53.8333,279.87,87,27,3.05,UY,1723090868
322,muheza,-5.1667,38.7833,293.46,91,65,2.06,TZ,1723090869
323,whitehorse,60.7161,-135.0538,298.58,33,0,5.14,CA,1723090703
324,tual,-5.6667,132.75,298.39,84,63,8.29,ID,1723090871
325,vilyuysk,63.7553,121.6247,294.03,40,8,0.5,RU,1723090872
326,waingapu,-9.6567,120.2641,303.11,57,53,8.48,ID,1723090873
327,tvoroyri,61.5556,-6.8111,283.94,92,24,6.74,FO,1723090875
328,halwan,29.8414,31.3008,300.57,53,0,3.54,EG,1723090876
329,al fallujah,33.3538,43.7795,306.09,25,0,5.51,IQ,1723090877
330,heihe,50.2441,127.4902,295.47,49,85,2.42,CN,1723090878
331,zelenogorsk,56.1147,94.5861,294.88,70,95,1.92,RU,1723090879
332,sittwe,20.15,92.9,299.72,87,100,5.59,MM,1723090880
333,monte alegre,-2.0078,-54.0692,297.58,70,1,1.48,BR,1723090881
334,linxia chengguanzhen,35.6003,103.2064,291.68,83,100,1.75,CN,1723090882
335,reggane,26.7158,0.1714,307.71,12,2,7.36,DZ,1723090883
336,cabo san lucas,22.8909,-109.9124,302.76,72,13,5.81,MX,1723090703
337,rikaze,29.25,88.8833,290.02,45,100,1.1,CN,1723090885
338,birjand,32.8663,59.2211,303.41,8,0,0.0,IR,1723090887
339,fredericksburg,38.3032,-77.4605,298.77,91,40,3.6,US,1723090889
340,nikol'sk,53.7189,46.0712,294.1,56,55,0.93,RU,1723090890
341,lata,40.1629,-8.3327,289.86,97,26,0.54,PT,1723090891
342,kidal,18.4411,1.4078,302.21,59,95,6.85,ML,1723090892
343,tolanaro,-25.0319,46.9987,293.19,88,75,5.14,MG,1723090893
344,rafraf,37.1904,10.1837,295.32,78,0,0.3,TN,1723090894
345,gorontalo,0.5412,123.0595,302.98,69,24,4.29,ID,1723090895
346,bulolo,-7.2,146.65,296.42,93,99,0.98,PG,1723090896
347,bar-le-duc,48.75,5.1667,288.36,72,100,0.63,FR,1723090897
348,edson,53.5835,-116.4356,288.23,72,0,1.54,CA,1723090737
349,stanley,54.868,-1.6985,286.92,87,2,3.6,GB,1723090900
350,mbeya,-8.9,33.45,282.93,71,86,2.54,TZ,1723090901
351,arraial do cabo,-22.9661,-42.0278,295.17,86,0,9.77,BR,1723090902
352,richards bay,-28.783,32.0377,289.14,86,27,4.52,ZA,1723090903
353,kirakira,-10.4544,161.9205,301.04,72,100,6.04,SB,1723090904
354,sao tome,0.3365,6.7273,296.94,83,67,3.4,ST,1723090905
355,letlhakane,-21.4167,25.5833,285.76,65,0,3.35,BW,1723090906
356,quellon,-43.1167,-73.6167,278.09,89,59,1.68,CL,1723090907
357,galle,6.0367,80.217,302.55,81,46,1.34,LK,1723090793
358,kayangel,8.0823,134.7173,302.12,74,95,4.77,PW,1723090344
359,kerema,-7.9631,145.7785,299.43,85,76,2.8,PG,1723090910
360,bangar,16.8936,120.4243,303.45,72,100,4.47,PH,1723090913
361,usinsk,65.9939,57.5281,287.82,51,7,3.76,RU,1723090914
362,mineros,-17.1167,-63.2333,292.49,93,83,3.18,BO,1723090915
363,floro,61.5996,5.0328,287.19,94,100,6.17,NO,1723090916
364,caucete,-31.6518,-68.2811,278.02,66,81,5.63,AR,1723090917
365,brigantine,39.4101,-74.3646,295.26,97,100,5.66,US,1723090918
366,ekibastuz,51.6667,75.3667,295.69,65,100,3.88,KZ,1723090919
367,noumea,-22.2763,166.4572,295.93,99,100,3.66,NC,1723090920
368,gvardeysk,54.6477,21.0651,289.18,90,71,2.01,RU,1723090922
369,shakawe,-18.3667,21.85,287.3,26,0,2.23,BW,1723090923
370,meghraj,23.5,73.5,300.34,78,100,5.0,IN,1723090924
371,portland,45.5234,-122.6762,300.16,55,0,3.6,US,1723090803
372,polonnaruwa,7.9333,81.0,306.47,46,74,3.51,LK,1723090927
373,meadow lakes,61.6247,-149.6011,289.08,96,100,1.54,US,1723090928
374,mata-utu,-13.2816,-176.1745,298.97,71,100,9.96,WF,1723090929
375,leh,34.1667,77.5833,288.75,46,58,1.68,IN,1723090930
376,middlebury (village),44.0153,-73.1673,289.78,90,0,0.0,US,1723090931
377,westport,41.1415,-73.3579,292.38,87,100,4.12,US,1723090932
378,namtsy,62.7161,129.6658,295.46,37,37,1.14,RU,1723090933
379,bengkulu,-3.8004,102.2655,301.83,67,48,3.25,ID,1723090934
380,saint-denis,48.9167,2.3333,291.24,72,0,2.06,FR,1723090935
381,allonnes,47.9674,0.1581,286.17,94,0,1.03,FR,1723090936
382,cidreira,-30.1811,-50.2056,288.59,97,100,2.58,BR,1723090937
383,zelenchukskaya,43.858,41.5894,288.63,74,0,1.72,RU,1723090939
384,haiku-pauwela,20.9219,-156.3051,298.43,74,20,8.75,US,1723090940
385,saint-pourcain-sur-sioule,46.3093,3.2879,287.66,85,78,1.42,FR,1723090941
386,safi,32.1667,-8.8333,292.92,93,7,2.45,MA,1723090820
387,carutapera,-1.195,-46.02,297.44,87,84,2.46,BR,1723090944
388,al ghayzah,16.2079,52.176,298.86,85,31,1.51,YE,1723090947
389,mogocha,53.7333,119.7667,297.42,39,100,2.86,RU,1723090948
390,port-gentil,-0.7193,8.7815,296.57,85,80,4.43,GA,1723090949
391,abepura,-2.6333,140.5833,302.6,70,20,3.09,ID,1723090953
392,bechar,31.6167,-2.2167,306.33,14,0,4.63,DZ,1723090716
393,aldinga beach,-35.2793,138.4604,286.33,91,100,7.67,AU,1723090955
394,dapa,9.7594,126.0531,301.92,72,100,1.01,PH,1723090956
395,mossel bay,-34.1831,22.146,281.11,88,3,1.35,ZA,1723090957
396,xining,36.6167,101.7667,286.91,92,100,0.83,CN,1723090843
397,sarreguemines,49.0833,7.3333,290.01,82,99,1.28,FR,1723090959
398,st. john's,47.5649,-52.7093,289.7,90,0,5.66,CA,1723090748
399,tiszaujvaros,47.9333,21.0833,291.64,56,3,0.36,HU,1723090961
400,carnarvon,-24.8667,113.6333,294.28,55,3,3.39,AU,1723090963
401,udachny,66.4167,112.4,295.71,50,100,7.4,RU,1723090704
402,muli,2.9167,73.5667,299.61,83,100,6.18,MV,1723090965
403,lensk,60.7253,114.9278,300.84,34,12,3.06,RU,1723090966
404,yerofey pavlovich,53.9667,121.9667,297.11,46,100,2.66,RU,1723090967
405,shiguai,40.7058,110.2856,299.46,51,84,6.99,CN,1723090968
406,fort st. john,56.2499,-120.8529,292.09,52,20,5.14,CA,1723090969
407,sumbe,-11.2061,13.8437,292.4,91,28,2.45,AO,1723090826
408,karukh,34.4811,62.5863,302.57,12,0,4.05,AF,1723090972
409,cedar city,37.6775,-113.0619,294.3,64,0,3.6,US,1723090973
410,kaa-khem,51.6833,94.7333,297.24,35,61,1.9,RU,1723090727
411,luwuk,-0.9516,122.7875,299.84,77,88,3.52,ID,1723090976
412,puerto carreno,6.189,-67.4859,296.35,97,100,2.74,CO,1723090977
413,bardai,11.65,7.2333,294.02,96,99,4.77,NG,1723090978
414,okhotsk,59.3833,143.3,291.92,65,9,1.42,RU,1723090731
415,qui nhon,13.7667,109.2333,307.84,50,21,1.26,VN,1723090980
416,ust'-kut,56.7938,105.7672,292.01,83,94,3.78,RU,1723090981
417,freeport,40.6576,-73.5832,293.29,89,100,3.09,US,1723090931
418,acajutla,13.5928,-89.8275,300.09,82,100,2.22,SV,1723090983
419,yatou,37.15,122.3833,301.71,62,99,1.98,CN,1723090984
420,al kharj,24.155,47.3346,305.47,10,28,2.79,SA,1723090985
421,trimbak,19.9333,73.55,296.03,87,100,4.5,IN,1723090987
422,san julian,21.0167,-102.1667,292.32,58,91,1.66,MX,1723090988
423,kontiolahti,62.7602,29.8471,287.12,88,0,1.54,FI,1723090989
424,yuzhno-kurilsk,44.0306,145.8556,291.55,99,100,2.38,RU,1723090990
425,kybartai,54.6386,22.7632,288.32,88,49,1.88,LT,1723090991
426,paracuru,-3.41,-39.0306,299.88,83,32,6.28,BR,1723090992
427,bonny,4.4522,7.1681,297.92,84,100,4.15,NG,1723090993
428,aromashevo,56.8602,68.6375,287.07,65,90,3.54,RU,1723090994
429,santa elena de uairen,4.6167,-61.1333,292.41,92,40,0.41,VE,1723090995
430,papao,-17.75,-149.55,299.97,78,0,7.39,PF,1723090997
431,nadym,65.5333,72.5167,285.29,62,90,5.62,RU,1723090998
432,inarajan village,13.2736,144.7484,301.92,87,96,2.51,GU,1723090999
433,wynyard,-41.0,145.7167,285.45,77,100,6.6,AU,1723091000
434,aykhal,66.0,111.5,296.39,47,87,8.22,RU,1723091001
435,siwa oasis,29.2041,25.5195,301.39,51,0,2.47,EG,1723091002
436,hammerfest,70.6634,23.6821,292.4,48,5,4.63,NO,1723091003
437,remire-montjoly,4.9167,-52.2667,299.17,94,40,1.03,GF,1723091004
438,khorixas,-20.3667,14.9667,287.41,40,0,0.18,NA,1723091005
439,omiya,36.55,140.4167,305.19,59,73,2.78,JP,1723091006
440,crane,31.3974,-102.3501,306.87,21,7,2.5,US,1723091008
441,minas de marcona,-15.2119,-75.1103,282.67,91,88,6.39,PE,1723091009
442,tofol,5.3248,163.0078,302.23,71,56,4.57,FM,1723091010
443,igrim,63.1906,64.4162,287.47,59,4,1.98,RU,1723091011
444,kota kinabalu,5.9749,116.0724,305.14,74,20,2.06,MY,1723090885
445,kargasok,59.0556,80.8572,287.88,70,97,1.97,RU,1723091013
446,prince rupert,54.3161,-130.3201,287.98,98,20,1.54,CA,1723091014
447,novouzensk,50.4592,48.1431,296.89,52,10,0.79,RU,1723090742
448,sinabang,2.4803,96.3801,300.23,79,100,0.43,ID,1723091016
449,wedi,-7.7431,110.5794,303.19,56,45,4.26,ID,1723091017
450,saguenay,48.4168,-71.0657,288.2,81,75,2.57,CA,1723090912
451,segezha,63.7415,34.3222,285.04,70,24,2.25,RU,1723091020
452,armagh,54.35,-6.6667,287.45,96,84,1.79,GB,1723091021
453,new norfolk,-42.7826,147.0587,288.1,56,100,4.01,AU,1723091022
454,kigoma,-4.8769,29.6267,291.48,68,20,1.03,TZ,1723091023
455,christchurch,-43.5333,172.6333,282.26,89,75,7.72,NZ,1723091024
456,san patricio,28.017,-97.5169,303.09,65,0,5.6,US,1723091025
457,tsengel,49.4783,100.8894,293.88,46,90,0.83,MN,1723091026
458,maragogi,-9.0122,-35.2225,296.15,81,61,3.6,BR,1723091027
459,tinajo,29.0788,-13.7081,295.64,73,100,6.69,ES,1723091028
460,stans,46.9585,8.366,292.0,92,75,1.54,CH,1723091029
461,kill devil hills,36.0307,-75.676,298.16,97,75,4.63,US,1723090952
462,siuna,13.7332,-84.7773,296.14,97,100,1.63,NI,1723091031
463,scarborough,54.2797,-0.4044,287.4,88,42,2.24,GB,1723090879
464,ola,59.5833,151.2833,287.44,79,44,3.67,RU,1723090824
465,ar ruways,24.1103,52.7306,307.68,48,68,0.92,AE,1723090746
466,nabire,-3.3667,135.4833,302.86,66,71,2.33,ID,1723091036
467,aksu,41.1231,80.2644,301.43,34,0,1.59,CN,1723091037
468,hilo,19.7297,-155.09,300.53,81,0,4.12,US,1723091038
469,swan hill,-35.3378,143.5544,290.71,39,99,6.7,AU,1723091039
470,bensekrane,35.0747,-1.2243,297.14,79,93,1.64,DZ,1723091040
471,kimbe,-5.5502,150.1429,301.83,76,95,1.84,PG,1723091041
472,bontang,0.1333,117.5,300.7,77,86,3.12,ID,1723091042
473,can giuoc,10.6167,106.6667,306.53,60,44,2.99,VN,1723090752
474,shendi,16.6915,33.4341,301.61,67,97,2.66,SD,1723091045
475,huntsville,34.7304,-86.5861,299.18,86,100,5.66,US,1723090962
476,kapsan-up,41.0903,128.2933,294.59,74,100,0.41,KP,1723091047
477,novyy urgal,51.0736,132.5642,303.36,38,8,0.62,RU,1723090826
478,volovets,48.7109,23.1851,287.39,87,7,1.25,UA,1723091049
479,vershino-darasunskiy,52.35,115.5167,297.96,32,90,1.62,RU,1723091050
480,ust'-ilimsk,58.0006,102.6619,289.15,97,100,2.95,RU,1723091051
481,leava,-14.3,-178.1667,298.56,66,75,9.4,WF,1723091052
482,selfoss,63.9331,-20.9971,282.06,94,5,1.69,IS,1723091053
483,impfondo,1.6381,18.0667,296.32,71,98,1.6,CG,1723091054
484,rio de janeiro,-22.9028,-43.2075,297.13,64,0,2.57,BR,1723091055
485,chonchi,-42.6128,-73.8092,275.99,97,20,0.53,CL,1723091056
486,cao bang,22.6667,106.25,304.35,71,23,2.6,VN,1723091058
487,kununurra,-15.7667,128.7333,306.14,22,2,4.63,AU,1723091059
488,abilene,32.4487,-99.7331,305.08,37,0,2.24,US,1723091060
489,sulphur springs,33.1385,-95.6011,303.19,58,0,3.09,US,1723091061
490,bayanaul,50.7889,75.6956,294.89,63,84,3.38,KZ,1723091062
491,puerto el triunfo,13.2833,-88.55,299.89,82,100,0.6,SV,1723091063
492,macapa,0.0389,-51.0664,301.14,89,75,1.54,BR,1723090765
493,recreo,-29.2818,-65.061,283.17,28,77,6.62,AR,1723091065
494,puerto armuelles,8.2833,-82.8667,297.09,89,100,2.24,PA,1723091066
495,bangassou,4.7413,22.8184,291.48,97,100,1.09,CF,1723091067
496,turkestan,43.3333,68.25,311.19,14,0,3.76,KZ,1723091068
497,puerto aysen,-45.4,-72.7,272.83,97,69,1.34,CL,1723091070
498,pimentel,-6.8367,-79.9342,289.31,82,0,5.66,PE,1723091071
499,pionerskiy,54.9508,20.2275,289.06,85,83,4.18,RU,1723091072
500,geneina,13.45,22.45,294.28,94,100,4.04,SD,1723091073
501,albardon,-31.4372,-68.5256,278.18,62,89,8.43,AR,1723091074
502,embi,48.8264,58.1442,300.88,41,93,5.51,KZ,1723091075
503,nantucket,41.2835,-70.0995,290.36,90,0,3.09,US,1723091076
504,pangody,65.85,74.4859,284.37,66,99,4.77,RU,1723091078
505,sorong,-0.8833,131.25,302.7,68,64,5.57,ID,1723091080
506,muroto-misakicho,33.2833,134.15,302.08,73,1,3.09,JP,1723091081
507,walvis bay,-22.9575,14.5053,284.87,93,0,3.09,NA,1723091082
508,erenhot,43.6475,111.9767,305.96,23,58,5.12,CN,1723091083
509,hadibu,12.65,54.0333,298.94,84,55,8.56,YE,1723091085
510,malango,-2.9627,119.9001,300.29,58,38,2.11,ID,1723091086
511,fortaleza,-3.7227,-38.5247,299.94,78,75,5.14,BR,1723090514
512,la gi,10.6667,107.7833,303.59,69,17,4.64,VN,1723091088
513,ta`u,-14.2336,-169.5144,298.29,76,84,9.95,AS,1723091089
514,port-vila,-17.7338,168.3219,296.93,73,100,5.14,VU,1723091092
515,colonia menno,-22.3667,-59.8167,287.52,82,100,5.92,PY,1723091093
516,thunder bay,48.4001,-89.3168,290.14,94,100,2.57,CA,1723091066
517,khorinsk,52.1657,109.7726,298.1,45,2,2.33,RU,1723091095
518,calama,-22.4667,-68.9333,273.42,18,0,8.23,CL,1723091096
519,ajaccio,42.0,8.9167,295.76,74,0,2.6,FR,1723090884
520,wewak,-3.5534,143.6268,301.98,74,74,3.95,PG,1723091098
521,nikolayevsk,50.0282,45.4595,297.35,48,61,1.49,RU,1723091099
522,kruisfontein,-34.0033,24.7314,282.13,84,0,2.88,ZA,1723091100
523,katabu,-4.9333,122.5167,304.4,51,32,4.27,ID,1723091101
524,sao gabriel da cachoeira,-0.1303,-67.0892,297.82,82,58,0.5,BR,1723091102
525,astara,38.5,48.6667,297.14,53,0,0.55,AZ,1723091104
526,mohr,54.3528,9.7167,287.23,94,75,1.54,DE,1723091105
527,rosarito,32.3333,-117.0333,295.67,78,28,0.38,MX,1723091106
528,aripuana,-9.1667,-60.6333,295.94,49,7,0.68,BR,1723091107
529,fortuna,40.5982,-124.1573,287.55,93,100,0.0,US,1723091108
530,dayrut,27.556,30.8076,302.28,41,0,3.82,EG,1723091109
531,hermosillo,29.0667,-110.9667,307.1,48,40,5.14,MX,1723090924
532,tabou,4.423,-7.3528,296.52,80,100,3.49,CI,1723091111
533,nagqu,31.5,92.0,283.13,74,100,1.59,CN,1723091112
534,itupiranga,-5.1347,-49.3267,296.33,49,0,1.29,BR,1723091113
535,neftcala,39.3742,49.2472,301.24,60,21,0.31,AZ,1723091115
536,ouesso,1.6136,16.0517,296.74,74,100,2.02,CG,1723091116
537,mwene-ditu,-7.0,23.45,292.13,26,65,2.39,CD,1723091117
538,holualoa,19.6228,-155.9522,299.06,87,75,3.6,US,1723091118
539,oranjemund,-28.55,16.4333,283.34,86,0,2.98,NA,1723091119
540,waddan,29.1614,16.139,302.63,27,5,4.52,LY,1723091120
541,talara,-4.5772,-81.2719,291.23,79,3,8.62,PE,1723091121
542,victorica,-36.2151,-65.4359,277.42,79,100,8.86,AR,1723091122
543,jackson,42.4165,-122.8345,301.08,24,100,2.57,US,1723091123
544,illapel,-31.6308,-71.1653,278.27,94,54,0.83,CL,1723091124
545,dogubayazit,39.5469,44.0842,294.19,55,0,1.52,TR,1723091125
546,sadjoavato,-12.6334,49.349,294.31,62,11,4.53,MG,1723091127
547,karlskrona,56.1616,15.5866,290.4,89,86,3.8,SE,1723091128
548,aitape,-3.1374,142.3475,301.94,78,75,4.18,PG,1723091129
549,salinas,36.6777,-121.6555,292.44,94,100,2.06,US,1723090901
550,qarazhal,48.0078,70.7903,304.99,25,4,4.05,KZ,1723091131
551,sao joao da barra,-21.6403,-41.0511,294.77,82,0,6.45,BR,1723091132
552,al bawiti,28.3492,28.8659,300.14,45,0,2.96,EG,1723091133
553,piacabucu,-10.4056,-36.4344,295.56,85,43,1.42,BR,1723091134
554,ancud,-41.8697,-73.8203,277.36,89,5,1.62,CL,1723091135
555,broome,42.2506,-75.833,291.59,87,100,3.09,US,1723091136
556,itamaraca,-7.7478,-34.8256,298.18,70,96,4.07,BR,1723091137
557,aurora,39.7294,-104.8319,296.08,55,40,5.66,US,1723090853
558,jinchang,38.4953,102.1739,298.96,42,100,5.77,CN,1723091140
559,treinta y tres,-33.2333,-54.3833,280.31,83,50,3.64,UY,1723090988
560,saint-philippe,-21.3585,55.7679,294.92,80,26,2.68,RE,1723091142
561,machiques,10.0644,-72.545,297.81,86,100,1.61,VE,1723091143
562,yura,-16.2522,-71.6797,283.89,11,0,2.64,PE,1723091144
563,lhokseumawe,5.1801,97.1507,303.3,66,39,2.19,ID,1723091145
564,powell,40.1578,-83.0752,295.15,90,75,2.06,US,1723091146
565,strzyzow,49.8707,21.7941,290.16,78,4,1.49,PL,1723091147
566,north platte,41.1239,-100.7654,293.77,93,40,4.63,US,1723091148
567,aroma,15.8167,36.1333,299.18,74,58,3.85,SD,1723091149
568,mpulungu,-8.7623,31.1141,293.27,46,84,3.61,ZM,1723091150
569,suntar,62.1444,117.6319,296.98,32,30,2.34,RU,1723091152
570,sommerda,51.15,11.1,292.05,96,59,2.09,DE,1723091153
571,beaufort west,-32.3567,22.583,284.03,33,0,2.47,ZA,1723091154
572,tsiombe,-25.3,45.4833,291.68,92,4,2.86,MG,1723091155
573,plastun,44.7561,136.2939,300.22,64,44,2.46,RU,1723091156
574,chui,-33.6971,-53.4616,281.63,81,68,2.77,UY,1723091157
575,camayenne,9.535,-13.6878,298.2,94,75,0.0,GN,1723091158
576,pasuquin,18.3328,120.6177,299.12,100,100,5.66,PH,1723091159
577,sangmelima,2.9333,11.9833,291.84,96,100,1.92,CM,1723091160
578,karwar,14.8,74.1333,299.8,79,100,1.0,IN,1723091161
579,ardakan,32.31,54.0175,309.57,10,12,2.02,IR,1723091163
580,fisterra,42.9049,-9.2629,292.05,82,9,8.69,ES,1723091164
581,dawei,14.0833,98.2,302.77,70,94,1.39,MM,1723091165
582,amga,60.8953,131.9608,294.69,40,1,1.28,RU,1723091166
583,saudarkrokur,65.7461,-19.6394,280.58,90,100,1.61,IS,1723091167
584,caleta de carquin,-11.0925,-77.6267,289.58,87,44,3.05,PE,1723091168
585,novo cruzeiro,-17.4681,-41.8753,289.81,86,75,0.69,BR,1723091169
